$G$GPRMC,103739.00,A,4612.59034,N,02006.30913,E,1.993,11.82,220723,,,A*59
$GPVTG,11.82,T,,M,1.993,N,3.691,K,A*08
$GPGGA,103739.00,4612.59034,N,02006.30913,E,1,04,4.16,76.1,M,37.7,M,,*61
$GPGSA,A,3,02,32,27,21,,,,,,,,,14.68,4.16,14.07*0D
$GPGSV,3,1,10,01,,,37,02,55,301,35,03,,,20,08,64,211,27*75
$GPGSV,3,2,10,10,39,054,30,14,13,315,32,21,65,307,33,22,40,135,34*71
$GPGSV,3,3,10,27,37,167,22,32,49,107,33*73
$GPGLL,4612.59034,N,02006.30913,E,103739.00,A,A*60
$GPRMC,103740.00,A,4612.59057,N,02006.31.121,,220723,,,A*7E
$GPVTG,,T,,M,1.121,N,2.075,K,A*20
$GPGGA,103740.00,4612.59057,N,02006.30938,E,1,04,4.16,75.8,M,37.7,M,,*69
$GPGSA,A,3,02,32,27,21,,,,,,,,,14.68,4.16,14.07*0D
$GPGSV,3,1,10,01,,,34,02,55,301,35,03,,,21,08,64,211,26*76
$GPGSV,3,2,10,10,39,054,29,14,13,315,28,21,65,307,34,22,40,135,33*72
$GPGSV,3,3,10,27,37,167,22,32,49,106,36*77
$GPGLL,4612.59057,N,02006.30938,E,103740.00,A,A*62
$GPRMC,103741.00,A,4612.58964,N,02006.30889,E,0.550,,220723,,,A*7F
$GPVTG,,T,,M,0.550,N,1.019
$GPGGA,103741.00,4612.58964,N,02006.30889,E,1,04,4.17,78.4,M,37.7,M,,*6B
$GPGSA,A,3,02,32,27,21,,,,,,,,,14.68,4.17,14.08*03
$GPGSV,3,1,10,01,,,34,02,55,301,34,03,,,22,08,64,211,26*74
$GPGSV,3,2,10,10,39,054,29,14,13,315,31,21,65,307,32,22,40,135,33*7C
$GPGSV,3,3,10,27,37,167,30,32,49,106,34*76
$GPGLL,4612.58964,N,02006.30889,E,103741.00,A,A*60
$GPRMC,103742.00,A,4612.58922,N,02006.30846,E,0.062,,220723,,,A*79
$GPVTG,,T,,M,0.062,N,0.115,K,A*22
$GPGGA,103742.00,4612.58922,N,02006.30846,E,1,,80.1,M,37.7,M,,*6B
$GPGSA,A,3,02,32,27,21,,,,,,,,,14.68,4.17,14.08*03
$GPGSV,3,1,11,01,,,35,02,55,301,36,03,,,22,08,64,211,25*75
$GPGSV,3,2,11,10,39,054,23,14,13,315,34,17,,,24,21,65,307,33*40
$GPGSV,3,3,11,22,40,135,34,27,37,167,24,32,49,106,34*46
$GPGLL,4612.58922,N,02006.30846,E,103742.00,A,A*62
$GPRMC,103743.00,V,,,,,,,220723,,,N*79
$GPVTG,,,,,,,,,N*30
$GPGGA,103743.00,,,,,0,03,67.26,,,,,,*62
$GPGSA,A,1,02,32,21,,,,,,,,,,67.26,67.26,1.00*01
$GPGSV,3,1,10,01,,,34,02,55,301,36,03,,,22,211,26*76
$GPGSV,3,2,10,10,39,054,29,14,13,315,34,21,65,307,32,22,40,135,33*79
$GPGSV,3,3,10,27,37,167,23,32,49,106,34*74
$GPGLL,,,,,103743.00,V,N*48
$GPRMC,103744.00,V,,,,,,,220723,,,N*7E
$GPVTG,,,,,,,,,N*30
$GPGGA,103744.00,,,,,0,03,67.34,,,,,,*66
$GPGSA,A,1,02,32,21,,,,,,,,,,67.35,67.34,1.00*00
$GPGSV,3,1,10,01,,,32,02,55,301,34,03,,,18,08,64,211,23*7E
$GPGSV,3,2,10,10,39,054,28,14,13,315,31,21,65,307,31,22,40,135,31*7C
$GPGSV,3,3,10,27,37,167,29,32,49,106,30*7A
$GPGLL,,,,,103744.04F
$GPRMC,103745.00,V,,,,,,,220723,,,N*7F
$GPVTG,,,,,,,,,N*30
$GPGGA,103745.00,,,,,0,03,67.42,,,,,,*66
$GPGSA,A,1,02,32,21,,,,,,,,,,67.43,67.42,1.00*00
$GPGSV,3,1,10,01,,,32,02,55,301,33,03,,,15,08,64,211,22*75
$GPGSV,3,2,10,10,39,054,19,14,13,315,30,21,65,307,31,22,40,135,32*7C
$GPGSV,3,3,10,27,37,167,19,32,49,106,34*7D
$GPGLL,,,,,103745.00,V,N*4E
$GPRMC,103746.00,V,,,,,,,220723,,,N*7C
$GPVTG,,,,,,,,,N*30
$GPGGA,103746.00,,,,,0,03,67.51,,,,,,*67
$GPGSA,A,1,02,32,21,,,,,,,,,,67.51,670*01
$GPGSV,3,1,10,01,,,30,02,55,301,33,03,,,12,08,64,211,29*7B
$GPGSV,3,2,10,10,39,054,30,14,13,315,33,21,65,307,30,22,40,135,32*75
$GPGSV,3,3,10,27,37,167,28,32,49,106,32*79
$GPGLL,,,,,103746.00,V,N*4D
$GPRMC,103747.00,V,,,,,,,220723,,,N*7D
$GPVTG,,,,,,,,,N*30
$GPGGA,103747.00,,,,,0,03,67.59,,,,,,*6E
$GPGSA,A,1,02,32,21,,,,,,,,,,67.60,67.59,1.00*0B
$GPGSV,3,1,10,01,,,28,02,55,301,30,03,,,09,08,64,211,25*77
$GPGSV,3,2,10,10,39,054,29,14,13,315,31,21,65,307,30,22,40,135,31*7C
$GPGSV,3,167,30,32,49,106,25*76
$GPGLL,,,,,103747.00,V,N*4C
$GPRMC,103748.00,A,4612.58854,N,02006.30673,E,1.324,266.24,220723,,,A*61
$GPVTG,266.24,T,,M,1.324,N,2.452,K,A*3C
$GPGGA,103748.00,4612.58854,N,02006.30673,E,1,04,4.18,80.2,M,37.7,M,,*65
$GPGSA,A,3,02,32,27,21,,,,,,,,,14.69,4.18,14.08*0D
$GPGSV,3,1,10,01,,,27,02,55,301,34,03,,,10,08,64,211,23*72
$GPGSV,3,2,10,10,39,054,33,14,13,315,31,21,65,307,30,22,40,135,29*7E
$GPGSV,3,3,10,27,37,167,32,32,49,106,25*74
$GPGLL,4612.58854,N,02006.30673,E,10,A,A*60
$GPRMC,103749.00,A,4612.58864,N,02006.30664,E,0.735,,220723,,,A*7A
$GPVTG,,T,,M,0.735,N,1.362,K,A*24
$GPGGA,103749.00,4612.58864,N,02006.30664,E,1,04,4.18,80.7,M,37.7,M,,*64
$GPGSA,A,3,02,32,27,21,,,,,,,,,14.69,4.18,14.08*0D
$GPGSV,3,1,10,01,,,28,02,55,301,31,03,,,10,08,64,211,22*79
$GPGSV,3,2,10,10,39,054,33,14,13,315,31,21,65,307,29,22,40,135,25*7A
$GPGSV,3,3,10,27,37,167,31,32,49,106,25*77
$GPGLL,4612.58864,N,02006.30664,E,103749.00,A,A*64
$GPRMC,103750.00,A,4612.58857,N,02006.,0.477,,220723,,,A*74
$GPVTG,,T,,M,0.477,N,0.884,K,A*23
$GPGGA,103750.00,4612.58857,N,02006.30654,E,1,04,4.18,81.3,M,37.7,M,,*6A
$GPGSA,A,3,02,32,27,21,,,,,,,,,14.69,4.18,14.08*0D
$GPGSV,3,1,10,01,,,18,02,55,301,34,03,,,13,08,64,211,22*7C
$GPGSV,3,2,10,10,39,054,34,14,13,315,25,21,65,307,30,22,40,135,28*7D
$GPGSV,3,3,10,27,37,167,35,32,49,106,26*70
$GPGLL,4612.58857,N,02006.30654,E,103750.00,A,A*6F
$GPRMC,103751.00,A,4612.58873,N,02006.30650,E,0.341,,220723,,,A*75
$GPVTG,,T,,M,0.341,N,0.632
$GPGGA,103751.00,4612.58873,N,02006.30650,E,1,04,4.18,82.2,M,37.7,M,,*6B
$GPGSA,A,3,02,32,27,21,,,,,,,,,14.69,4.18,14.09*0C
$GPGSV,3,1,10,01,,,21,02,55,301,30,03,,,15,08,64,211,22*74
$GPGSV,3,2,10,10,39,054,33,14,13,315,31,21,65,307,31,22,40,135,28*7E
$GPGSV,3,3,10,27,37,167,33,32,49,106,26*76
$GPGLL,4612.58873,N,02006.30650,E,103751.00,A,A*6C
$GPRMC,103752.00,A,4612.58839,N,02006.30553,E,1.318,,220723,,,A*75
$GPVTG,,T,,M,1.318,N,2.440,K,A*2A
$GPGGA,103752.00,4612.58839,N,02006.30553,E,19,79.0,M,37.7,M,,*61
$GPGSA,A,3,02,32,27,21,,,,,,,,,14.70,4.19,14.09*05
$GPGSV,3,1,10,01,,,22,02,55,301,26,03,,,16,08,64,211,23*72
$GPGSV,3,2,10,10,39,054,34,14,13,315,25,21,65,307,34,22,40,135,33*73
$GPGSV,3,3,10,27,37,167,34,32,49,106,27*70
$GPGLL,4612.58839,N,02006.30553,E,103752.00,A,A*61
$GPRMC,103753.00,A,4612.58817,N,02006.30519,E,0.664,,220723,,,A*79
$GPVTG,,T,,M,0.664,N,1.230,K,A*27
$GPGGA,103753.00,4612.58817,N,02006.30519,E,1,04,4.19,79.1,M,37.7,M,,*63
$GPGSA,A,3,02,32,27,21,,,,4.70,4.19,14.09*05
$GPGSV,3,1,10,01,,,23,02,55,302,30,03,,,17,08,64,211,22*77
$GPGSV,3,2,10,10,39,054,29,14,13,315,24,21,65,307,29,22,40,135,31*70
$GPGSV,3,3,10,27,37,167,36,32,49,106,26*73
$GPGLL,4612.58817,N,02006.30519,E,103753.00,A,A*62
$GPRMC,103754.00,A,4612.58802,N,02006.30466,E,1.125,,220723,,,A*70
$GPVTG,,T,,M,1.125,N,2.083,K,A*2D
$GPGGA,103754.00,4612.58802,N,02006.30466,E,1,04,4.19,77.8,M,37.7,M,,*6E
$GPGSA,A,3,02,32,27,21,,,,,,,,,14.70,4.19,14.09*05
$GPGSV,3,1,10,01,,,30,02,55,,03,,,18,08,64,211,28*72
$GPGSV,3,2,10,10,39,054,33,14,13,315,30,21,65,307,28,22,40,135,30*7E
$GPGSV,3,3,10,27,37,167,31,32,49,106,31*72
$GPGLL,4612.58802,N,02006.30466,E,103754.00,A,A*68
$GPRMC,103755.00,A,4612.58766,N,02006.30416,E,1.277,,220723,,,A*7F
$GPVTG,,T,,M,1.277,N,2.364,K,A*23
$GPGGA,103755.00,4612.58766,N,02006.30416,E,1,04,4.19,77.3,M,37.7,M,,*6E
$GPGSA,A,3,02,32,27,21,,,,,,,,,14.70,4.19,14.09*05
$GPGSV,3,1,10,01,,,30,02,55,302,22,03,,,18,08,64,211,26*7D
$GPGSV,3,2,10,10,39,054,13,315,18,21,65,307,27,22,40,135,26*7E
$GPGSV,3,3,10,27,37,167,30,32,49,106,32*70
$GPGLL,4612.58766,N,02006.30416,E,103755.00,A,A*63
$GPRMC,103756.00,A,4612.58736,N,02006.30355,E,0.231,,220723,,,A*7A
$GPVTG,,T,,M,0.231,N,0.428,K,A*2D
$GPGGA,103756.00,4612.58736,N,02006.30355,E,1,04,4.19,77.7,M,37.7,M,,*6C
$GPGSA,A,3,02,32,27,21,,,,,,,,,14.70,4.19,14.09*05
$GPGSV,3,1,10,01,,,31,02,55,302,30,03,,,20,08,64,211,26*74
$GPGSV,3,2,10,10,39,054,27,14,13,315,19,21,65,307,33,22,40,135,35*7F
$GPGSV,27,37,167,26,32,49,106,35*70
$GPGLL,4612.58736,N,02006.30355,E,103756.00,A,A*65
$GPRMC,103757.00,A,4612.58750,N,02006.30405,E,0.189,,220723,,,A*79
$GPVTG,,T,,M,0.189,N,0.350,K,A*25
$GPGGA,103757.00,4612.58750,N,02006.30405,E,1,04,4.19,77.8,M,37.7,M,,*60
$GPGSA,A,3,02,32,27,21,,,,,,,,,14.70,4.19,14.09*05
$GPGSV,3,1,10,01,,,32,02,55,302,34,03,,,19,08,64,211,26*79
$GPGSV,3,2,10,10,39,054,26,14,13,315,22,21,65,307,29,22,40,135,31*79
$GPGSV,3,3,10,27,37,167,24,32,49,106,35*72
$GPGLL,4612.587506.30405,E,103757.00,A,A*66
$GPRMC,103758.00,A,4612.58744,N,02006.30426,E,0.756,,220723,,,A*76
$GPVTG,,T,,M,0.756,N,1.400,K,A*22
$GPGGA,103758.00,4612.58744,N,02006.30426,E,1,04,4.20,77.3,M,37.7,M,,*6A
$GPGSA,A,3,02,32,27,21,,,,,,,,,14.70,4.20,14.09*0F
$GPGSV,3,1,10,01,,,33,02,55,302,27,03,,,16,08,64,211,27*74
$GPGSV,3,2,10,10,39,054,25,14,13,315,25,21,65,307,31,22,40,135,25*71
$GPGSV,3,3,10,27,37,167,24,32,49,106,34*73
$GPGLL,4612.58744,N,02006.30426,E,103758.00,A,A*6D
$GPRMC,103759.00,A,421,N,02006.30469,E,1.367,,220723,,,A*78
$GPVTG,,T,,M,1.367,N,2.531,K,A*25
$GPGGA,103759.00,4612.58721,N,02006.30469,E,1,04,4.20,78.5,M,37.7,M,,*6A
$GPGSA,A,3,02,32,27,21,,,,,,,,,14.71,4.20,14.09*0E
$GPGSV,3,1,10,01,,,34,02,55,302,31,03,,,16,08,64,211,32*70
$GPGSV,3,2,10,10,38,054,34,14,13,315,23,21,65,307,34,22,40,135,31*76
$GPGSV,3,3,10,27,37,167,30,32,49,106,22*71
$GPGLL,4612.58721,N,02006.30469,E,103759.00,A,A*64
$GPRMC,103800.00,A,4612.58681,N,02006.30478,E,1.026,,220723,,,A*76
$GPVTG,.026,N,1.900,K,A*2E
$GPGGA,103800.00,4612.58681,N,02006.30478,E,1,04,4.20,78.4,M,37.7,M,,*63
$GPGSA,A,3,02,32,27,21,,,,,,,,,14.71,4.20,14.09*0E
$GPGSV,3,1,10,01,,,29,02,55,302,31,03,,,17,08,64,211,36*79
$GPGSV,3,2,10,10,38,054,31,14,13,315,22,21,65,307,21,22,40,135,32*75
$GPGSV,3,3,10,27,37,167,33,32,49,106,34*75
$GPGLL,4612.58681,N,02006.30478,E,103800.00,A,A*6C
$GPRMC,103801.00,A,4612.58672,N,02006.30515,E,1.119,,220723,,,A*7C
$GPVTG,,T,,M,1.119,N,2.071,K,A*2F
$GPGGA,103801.00,4612.586726.30515,E,1,04,4.20,78.4,M,37.7,M,,*64
$GPGSA,A,3,02,32,27,21,,,,,,,,,14.71,4.20,14.10*06
$GPGSV,3,1,10,01,,,29,02,55,302,25,03,,,21,08,64,211,35*7A
$GPGSV,3,2,10,10,38,054,26,14,13,315,19,21,65,307,22,22,40,135,34*7E
$GPGSV,3,3,10,27,37,167,34,32,49,106,36*70
$GPGLL,4612.58672,N,02006.30515,E,103801.00,A,A*6B
$GPRMC,103802.00,A,4612.58686,N,02006.30572,E,1.247,,220723,,,A*7D
$GPVTG,,T,,M,1.247,N,2.310,K,A*23
$GPGGA,103802.00,4612.58686,N,02006.30572,E,1,04,4.20,78.3,M,37.7,M,,*6A
$GPGSA,A2,27,21,,,,,,,,,14.71,4.20,14.10*06
$GPGSV,3,1,10,01,,,27,02,55,302,30,03,,,23,08,64,211,31*76
$GPGSV,3,2,10,10,38,054,25,14,13,315,19,21,65,307,21,22,40,135,30*7A
$GPGSV,3,3,10,27,37,167,35,32,49,106,35*72
$GPGLL,4612.58686,N,02006.30572,E,103802.00,A,A*62
$GPRMC,103803.00,A,4612.58659,N,02006.30586,E,0.852,,220723,,,A*7A
$GPVTG,,T,,M,0.852,N,1.578,K,A*27
$GPGGA,103803.00,4612.58659,N,02006.30586,E,1,04,4.20,78.4,M,37.7,M,,*65
$GPGSA,A,3,02,32,27,21,,,,,,,,,14.71,4.20,14.10*06
$GPGSV,3,1,,26,02,55,302,23,03,,,25,08,64,211,35*77
$GPGSV,3,2,10,10,38,054,24,14,13,314,16,21,65,307,20,22,40,135,25*70
$GPGSV,3,3,10,27,37,167,30,32,49,106,33*71
$GPGLL,4612.58659,N,02006.30586,E,103803.00,A,A*6A
$GPRMC,103804.00,A,4612.58711,N,02006.30656,E,0.937,,220723,,,A*7C
$GPVTG,,T,,M,0.937,N,1.735,K,A*2E
$GPGGA,103804.00,4612.58711,N,02006.30656,E,1,04,4.21,77.8,M,37.7,M,,*63
$GPGSA,A,3,02,32,27,21,,,,,,,,,14.71,4.21,14.10*07
$GPGSV,3,1,10,01,,,24,02,55,302,22,03,,,26,08,64,211,33*71
$GPGSV,10,38,054,24,14,13,314,14,21,65,307,21,22,40,135,31*76
$GPGSV,3,3,10,27,37,167,34,32,49,106,30*76
$GPGLL,4612.58711,N,02006.30656,E,103804.00,A,A*6E
$GPRMC,103805.00,A,4612.58730,N,02006.30708,E,1.064,,220723,,,A*7A
$GPVTG,,T,,M,1.064,N,1.970,K,A*2F
$GPGGA,103805.00,4612.58730,N,02006.30708,E,1,04,4.21,77.2,M,37.7,M,,*61
$GPGSA,A,3,02,32,27,21,,,,,,,,,14.71,4.21,14.10*07
$GPGSV,3,1,10,01,,,23,02,55,302,22,03,,,25,08,64,211,35*73
$GPGSV,3,2,10,10,38,054,24,14,13,314,11,21,65,307,21,22,40,135
$GPGSV,3,3,10,27,37,167,29,32,49,106,36*7C
$GPGLL,4612.58730,N,02006.30708,E,103805.00,A,A*66
$GPRMC,103806.00,A,4612.58728,N,02006.30725,E,1.186,,220723,,,A*72
$GPVTG,,T,,M,1.186,N,2.197,K,A*20
$GPGGA,103806.00,4612.58728,N,02006.30725,E,1,04,4.21,76.8,M,37.7,M,,*6F
$GPGSA,A,3,02,32,27,21,,,,,,,,,14.72,4.21,14.10*04
$GPGSV,3,1,10,01,,,22,02,55,302,22,03,,,26,08,64,211,34*70
$GPGSV,3,2,10,10,38,054,26,14,13,314,13,21,65,307,20,22,40,135,33*70
$GPGSV,3,3,10,27,37,167,21,32,49,106,39*7B
$G12.58728,N,02006.30725,E,103806.00,A,A*63
$GPRMC,103807.00,A,4612.58753,N,02006.30788,E,1.000,,220723,,,A*77
$GPVTG,,T,,M,1.000,N,1.851,K,A*2F
$GPGGA,103807.00,4612.58753,N,02006.30788,E,1,04,4.21,75.8,M,37.7,M,,*66
$GPGSA,A,3,02,32,27,21,,,,,,,,,14.72,4.21,14.10*04
$GPGSV,3,1,10,01,,,20,02,55,302,23,03,,,25,08,64,211,33*77
$GPGSV,3,2,10,10,38,054,24,14,13,314,14,21,65,307,20,22,40,135,35*73
$GPGSV,3,3,10,27,37,167,29,32,49,106,39*73
$GPGLL,4612.58753,N,02006.30788,E,103807.00,A,A*69
$GPRM8.00,A,4612.58757,N,02006.30841,E,1.269,,220723,,,A*7B
$GPVTG,,T,,M,1.269,N,2.350,K,A*2B
$GPGGA,103808.00,4612.58757,N,02006.30841,E,1,04,4.21,75.1,M,37.7,M,,*6E
$GPGSA,A,3,02,32,27,21,,,,,,,,,14.72,4.21,14.10*04
$GPGSV,3,1,10,01,,,20,02,55,302,30,03,,,24,08,64,211,29*7F
$GPGSV,3,2,10,10,38,054,31,14,13,314,14,21,65,307,25,22,40,135,32*75
$GPGSV,3,3,10,27,37,167,35,32,49,106,36*71
$GPGLL,4612.58757,N,02006.30841,E,103808.00,A,A*68
$GPRMC,103809.00,A,4612.58774,N,02006.30918,E,1.483,341.12,22A*6F
$GPVTG,341.12,T,,M,1.483,N,2.746,K,A*31
$GPGGA,103809.00,4612.58774,N,02006.30918,E,1,04,4.22,74.5,M,37.7,M,,*65
$GPGSA,A,3,02,32,27,21,,,,,,,,,14.72,4.22,14.10*07
$GPGSV,3,1,10,01,,,20,02,55,302,28,03,,,22,08,64,211,30*78
$GPGSV,3,2,10,10,38,054,30,14,13,314,11,21,65,307,25,22,40,135,33*70
$GPGSV,3,3,10,27,37,167,36,32,49,106,33*77
$GPGLL,4612.58774,N,02006.30918,E,103809.00,A,A*65
$GPRMC,103810.00,A,4612.58803,N,02006.30981,E,1.846,24.90,220723,,,A*57
$GPVTG,24.90,T,,M,1.846,N,3.419
$GPGGA,103810.00,4612.58803,N,02006.30981,E,1,04,4.22,73.8,M,37.7,M,,*68
$GPGSA,A,3,02,32,27,21,,,,,,,,,14.72,4.22,14.10*07
$GPGSV,3,1,10,01,,,24,02,55,302,29,03,,,21,08,64,211,31*7F
$GPGSV,3,2,10,10,38,054,30,14,13,314,19,21,65,307,27,22,40,135,35*7C
$GPGSV,3,3,10,27,37,167,37,32,49,106,31*74
$GPGLL,4612.58803,N,02006.30981,E,103810.00,A,A*62
$GPRMC,103811.00,A,4612.58840,N,02006.31031,E,1.709,33.21,220723,,,A*5A
$GPVTG,33.21,T,,M,1.709,N,3.166,K,A*03
$GPGGA,103811.00,4612.58840,N,02006.E,1,04,4.22,72.1,M,37.7,M,,*65
$GPGSA,A,3,02,32,27,21,,,,,,,,,14.72,4.22,14.11*06
$GPGSV,3,1,10,01,,,25,02,55,302,30,03,,,20,08,64,211,33*75
$GPGSV,3,2,10,10,38,054,31,14,13,314,26,21,65,307,29,22,40,135,35*7F
$GPGSV,3,3,10,27,37,167,38,32,49,106,35*7F
$GPGLL,4612.58840,N,02006.31031,E,103811.00,A,A*67
$GPRMC,103812.00,A,4612.58873,N,02006.31051,E,1.304,29.89,220723,,,A*5F
$GPVTG,29.89,T,,M,1.304,N,2.415,K,A*03
$GPGGA,103812.00,4612.58873,N,02006.31051,E,1,04,4.22,71.8,M,37.7,M,,*6A
$GPGSA,32,27,21,,,,,,,,,14.72,4.22,14.11*06
$GPGSV,3,1,10,01,,,27,02,55,302,31,03,,,20,08,64,211,34*71
$GPGSV,3,2,10,10,38,054,31,14,13,314,27,21,65,307,29,22,40,135,33*78
$GPGSV,3,3,10,27,37,167,37,32,49,106,32*77
$GPGLL,4612.58873,N,02006.31051,E,103812.00,A,A*62
$GPRMC,103813.00,A,4612.58931,N,02006.31106,E,1.803,35.76,220723,,,A*5B
$GPVTG,35.76,T,,M,1.803,N,3.339,K,A*0A
$GPGGA,103813.00,4612.58931,N,02006.31106,E,1,04,4.22,71.0,M,37.7,M,,*67
$GPGSA,A,3,02,32,27,21,,,,,,,,,14.73,4.22,14.11*07
3,1,10,01,,,27,02,55,302,31,03,,,19,08,64,211,30*7F
$GPGSV,3,2,10,10,38,054,30,14,13,314,28,21,65,307,28,22,40,135,30*74
$GPGSV,3,3,10,27,37,167,38,32,49,106,35*7F
$GPGLL,4612.58931,N,02006.31106,E,103813.00,A,A*67
$GPRMC,103814.00,A,4612.58961,N,02006.31149,E,1.850,38.50,220723,,,A*5D
$GPVTG,38.50,T,,M,1.850,N,3.425,K,A*0F
$GPGGA,103814.00,4612.58961,N,02006.31149,E,1,04,4.22,70.5,M,37.7,M,,*6A
$GPGSA,A,3,02,32,27,21,,,,,,,,,14.73,4.22,14.11*07
$GPGSV,3,1,10,01,,,27,02,55,302,31,03,,,20,08,34*71
$GPGSV,3,2,10,10,38,054,34,14,13,314,28,21,65,307,29,22,40,135,34*75
$GPGSV,3,3,10,27,37,167,37,32,49,106,38*7D
$GPGLL,4612.58961,N,02006.31149,E,103814.00,A,A*6E
$GPRMC,103815.00,A,4612.58993,N,02006.31197,E,1.463,37.24,220723,,,A*52
$GPVTG,37.24,T,,M,1.463,N,2.709,K,A*03
$GPGGA,103815.00,4612.58993,N,02006.31197,E,1,04,4.23,69.9,M,37.7,M,,*60
$GPGSA,A,3,02,32,27,21,,,,,,,,,14.73,4.23,14.11*06
$GPGSV,3,1,10,01,,,26,02,55,302,30,03,,,21,08,64,211,30*74
$GPGSV,3,2,10,10,38,054,33,14,26,21,65,307,27,22,40,135,36*70
$GPGSV,3,3,10,27,37,167,31,32,49,106,36*75
$GPGLL,4612.58993,N,02006.31197,E,103815.00,A,A*61
$GPRMC,103816.00,A,4612.59032,N,02006.31209,E,1.241,,220723,,,A*7C
$GPVTG,,T,,M,1.241,N,2.299,K,A*25
$GPGGA,103816.00,4612.59032,N,02006.31209,E,1,04,4.23,67.9,M,37.7,M,,*6A
$GPGSA,A,3,02,32,27,21,,,,,,,,,14.73,4.23,14.11*06
$GPGSV,3,1,10,01,,,25,02,55,302,30,03,,,22,08,64,211,31*75
$GPGSV,3,2,10,10,38,054,28,14,13,314,25,21,65,307,28,22,40,135,34*74
$GPGSV,3,3,10,27,31,32,49,106,36*75
$GPGLL,4612.59032,N,02006.31209,E,103816.00,A,A*65
$GPRMC,103817.00,A,4612.59049,N,02006.31255,E,1.213,,220723,,,A*7F
$GPVTG,,T,,M,1.213,N,2.246,K,A*20
$GPGGA,103817.00,4612.59049,N,02006.31255,E,1,04,4.23,65.8,M,37.7,M,,*6D
$GPGSA,A,3,02,32,27,21,,,,,,,,,14.73,4.23,14.11*06
$GPGSV,3,1,10,01,,,25,02,55,302,20,03,,,30,08,64,211,27*70
$GPGSV,3,2,10,10,38,054,26,14,13,314,23,21,65,307,25,22,40,135,31*74
$GPGSV,3,3,10,27,37,167,34,32,49,106,38*7E
$GPGLL,4612.59049,N,02006.,103817.00,A,A*61
$GPRMC,103818.00,A,4612.59039,N,02006.31289,E,0.953,,220723,,,A*78
$GPVTG,,T,,M,0.953,N,1.765,K,A*29
$GPGGA,103818.00,4612.59039,N,02006.31289,E,1,04,4.23,65.2,M,37.7,M,,*6E
$GPGSA,A,3,02,32,27,21,,,,,,,,,14.73,4.23,14.11*06
$GPGSV,3,1,10,01,,,31,02,55,302,29,03,,,33,08,64,211,31*78
$GPGSV,3,2,10,10,38,054,31,14,13,314,19,21,65,307,24,22,40,135,36*7D
$GPGSV,3,3,10,27,37,167,30,32,49,106,37*75
$GPGLL,4612.59039,N,02006.31289,E,103818.00,A,A*68
$GPRMC,103819.00,A,4612.589486.31298,E,0.917,,220723,,,A*77
$GPVTG,,T,,M,0.917,N,1.698,K,A*2A
$GPGGA,103819.00,4612.58948,N,02006.31298,E,1,05,2.10,71.4,M,37.7,M,,*65
$GPGSA,A,3,02,32,08,27,21,,,,,,,,6.17,2.10,5.80*01
$GPGSV,3,1,10,01,,,27,02,55,302,23,03,,,32,08,64,211,31*74
$GPGSV,3,2,10,10,38,054,25,14,13,314,16,21,65,307,23,22,40,135,28*7F
$GPGSV,3,3,10,27,37,167,34,32,49,106,34*72
$GPGLL,4612.58948,N,02006.31298,E,103819.00,A,A*67
$GPRMC,103820.00,A,4612.58933,N,02006.31338,E,1.334,,220723,,,A*70
$GPVTG,,T,,M,1.3471,K,A*26
$GPGGA,103820.00,4612.58933,N,02006.31338,E,1,05,2.10,72.3,M,37.7,M,,*6C
$GPGSA,A,3,02,32,08,27,21,,,,,,,,6.17,2.10,5.80*01
$GPGSV,3,1,10,01,,,26,02,55,302,23,03,,,28,08,64,211,30*7F
$GPGSV,3,2,10,10,38,054,23,14,13,314,14,21,65,307,20,22,40,135,26*76
$GPGSV,3,3,10,27,37,167,32,32,49,106,37*77
$GPGLL,4612.58933,N,02006.31338,E,103820.00,A,A*6A
$GPRMC,103821.00,A,4612.58897,N,02006.31382,E,1.682,,220723,,,A*77
$GPVTG,,T,,M,1.682,N,3.115,K,A*28
$GPGGA,103821.00,4612.58897,N,02006.,1,05,2.10,75.9,M,37.7,M,,*6E
$GPGSA,A,3,02,32,08,27,21,,,,,,,,6.17,2.10,5.79*07
$GPGSV,3,1,10,01,,,23,02,55,302,24,03,,,27,08,64,211,31*73
$GPGSV,3,2,10,10,38,054,31,14,13,314,16,21,65,307,20,22,40,135,35*75
$GPGSV,3,3,10,27,37,167,33,32,49,106,33*72
$GPGLL,4612.58897,N,02006.31382,E,103821.00,A,A*65
$GPRMC,103822.00,A,4612.58927,N,02006.31422,E,1.418,,220723,,,A*72
$GPVTG,,T,,M,1.418,N,2.627,K,A*2E
$GPGGA,103822.00,4612.58927,N,02006.31422,E,1,05,2.10,76.2,M,37.7,M,,*62
$GPGSA,A,3,02,32,1,,,,,,,,6.17,2.10,5.79*07
$GPGSV,3,1,10,01,,,31,02,55,302,31,03,,,24,08,64,211,31*77
$GPGSV,3,2,10,10,38,054,34,14,13,314,23,21,65,307,24,22,40,135,35*72
$GPGSV,3,3,10,27,37,167,33,32,49,106,32*73
$GPGLL,4612.58927,N,02006.31422,E,103822.00,A,A*61
$GPRMC,103823.00,A,4612.58968,N,02006.31491,E,1.727,26.87,220723,,,A*5A
$GPVTG,26.87,T,,M,1.727,N,3.199,K,A*07
$GPGGA,103823.00,4612.58968,N,02006.31491,E,1,05,2.10,76.7,M,37.7,M,,*65
$GPGSA,A,3,02,32,08,27,21,,,,,,,,6.17,2.10,5.79*07
$GPGSV,3,1,,34,02,55,302,33,03,,,24,08,64,211,28*78
$GPGSV,3,2,10,10,38,054,31,14,13,314,26,21,65,307,27,22,40,135,39*7D
$GPGSV,3,3,10,27,37,167,32,32,49,106,40*77
$GPGLL,4612.58968,N,02006.31491,E,103823.00,A,A*63
$GPRMC,103824.00,A,4612.59001,N,02006.31502,E,1.528,20.04,220723,,,A*51
$GPVTG,20.04,T,,M,1.528,N,2.830,K,A*0C
$GPGGA,103824.00,4612.59001,N,02006.31502,E,1,05,2.10,76.5,M,37.7,M,,*6C
$GPGSA,A,3,02,32,08,27,21,,,,,,,,6.17,2.10,5.79*07
$GPGSV,3,1,10,01,,,35,02,55,302,32,03,,,21,08,64,211,28*PGSV,3,2,10,10,38,054,34,14,13,314,24,21,65,307,27,22,40,135,38*7B
$GPGSV,3,3,10,27,37,167,31,32,49,106,35*76
$GPGLL,4612.59001,N,02006.31502,E,103824.00,A,A*68
$GPRMC,103825.00,A,4612.59071,N,02006.31514,E,1.454,8.26,220723,,,A*60
$GPVTG,8.26,T,,M,1.454,N,2.694,K,A*3C
$GPGGA,103825.00,4612.59071,N,02006.31514,E,1,05,2.11,74.6,M,37.7,M,,*6D
$GPGSA,A,3,02,32,08,27,21,,,,,,,,6.16,2.11,5.79*07
$GPGSV,3,1,10,01,,,32,02,55,302,28,03,,,22,08,64,211,27*7D
$GPGSV,3,2,10,10,38,054,31,14,13,314,22,21,27,22,40,135,37*77
$GPGSV,3,3,10,27,37,167,29,32,49,106,40*7D
$GPGLL,4612.59071,N,02006.31514,E,103825.00,A,A*69
$GPRMC,103826.00,A,4612.59125,N,02006.31514,E,1.874,1.05,220723,,,A*65
$GPVTG,1.05,T,,M,1.874,N,3.471,K,A*32
$GPGGA,103826.00,4612.59125,N,02006.31514,E,1,05,2.11,73.7,M,37.7,M,,*68
$GPGSA,A,3,02,32,08,27,21,,,,,,,,6.16,2.11,5.79*07
$GPGSV,3,1,10,01,,,31,02,55,302,28,03,,,22,08,64,211,25*7C
$GPGSV,3,2,10,10,38,054,30,14,13,314,18,21,65,307,25,22,40,135,36*7C
$GPGSV,3,3,10,27,37,32,49,106,41*77
$GPGLL,4612.59125,N,02006.31514,E,103826.00,A,A*6A
$GPRMC,103827.00,A,4612.59183,N,02006.31519,E,1.084,,220723,,,A*78
$GPVTG,,T,,M,1.084,N,2.008,K,A*24
$GPGGA,103827.00,4612.59183,N,02006.31519,E,1,05,2.11,71.2,M,37.7,M,,*6F
$GPGSA,A,3,02,32,08,27,21,,,,,,,,6.16,2.11,5.79*07
$GPGSV,3,1,10,01,,,28,02,55,302,28,03,,,20,08,64,211,23*70
$GPGSV,3,2,10,10,38,054,30,14,13,314,18,21,65,307,26,22,40,135,36*7F
$GPGSV,3,3,10,27,37,167,33,32,49,106,40*76
$GPGLL,4612.59183,N,02006.3151927.00,A,A*6A
$GPRMC,103828.00,A,4612.59233,N,02006.31530,E,1.341,,220723,,,A*7E
$GPVTG,,T,,M,1.341,N,2.483,K,A*29
$GPGGA,103828.00,4612.59233,N,02006.31530,E,1,04,2.14,69.9,M,37.7,M,,*65
$GPGSA,A,3,02,32,08,27,,,,,,,,,6.31,2.14,5.93*00
$GPGSV,3,1,11,01,,,27,02,55,302,27,03,,,20,08,64,211,23*71
$GPGSV,3,2,11,10,38,054,33,14,13,314,19,21,65,307,,22,40,135,36*78
$GPGSV,3,3,11,27,37,167,33,32,49,106,38,39,37,173,31*41
$GPGLL,4612.59233,N,02006.31530,E,103828.00,A,A*66
$GPRMC,103829.00,A,4612.502006.31557,E,1.645,,220723,,,A*7F
$GPVTG,,T,,M,1.645,N,3.046,K,A*24
$GPGGA,103829.00,4612.59301,N,02006.31557,E,1,04,2.14,67.4,M,37.7,M,,*66
$GPGSA,A,3,02,32,08,27,,,,,,,,,6.31,2.14,5.93*00
$GPGSV,3,1,11,01,,,25,02,55,302,26,03,,,21,08,64,211,23*73
$GPGSV,3,2,11,10,38,054,29,14,13,314,20,21,65,307,25,22,40,135,37*7F
$GPGSV,3,3,11,27,37,167,29,32,49,106,36,39,37,173,30*45
$GPGLL,4612.59301,N,02006.31557,E,103829.00,A,A*66
$GPRMC,103830.00,A,4612.59341,N,02006.31573,E,1.268,,220723,,,A*7E
$T,,M,1.268,N,2.348,K,A*23
$GPGGA,103830.00,4612.59341,N,02006.31573,E,1,05,2.11,66.8,M,37.7,M,,*65
$GPGSA,A,3,02,32,08,27,21,,,,,,,,6.16,2.11,5.79*07
$GPGSV,3,1,11,01,,,24,02,55,302,26,03,,,22,08,64,211,23*71
$GPGSV,3,2,11,10,38,054,36,14,13,314,19,21,65,307,25,22,40,135,37*7B
$GPGSV,3,3,11,27,37,167,33,32,49,106,38,39,37,173,29*48
$GPGLL,4612.59341,N,02006.31573,E,103830.00,A,A*6C
$GPRMC,103831.00,A,4612.59409,N,02006.31566,E,2.359,357.15,220723,,,A*6B
$GPVTG,357.15,T,,M,2.359,N,4.369,K,A*3GA,103831.00,4612.59409,N,02006.31566,E,1,05,2.11,66.3,M,37.7,M,,*60
$GPGSA,A,3,02,32,08,27,21,,,,,,,,6.16,2.11,5.79*07
$GPGSV,3,1,11,01,,,32,02,55,302,31,03,,,23,08,64,211,22*70
$GPGSV,3,2,11,10,38,054,33,14,13,314,18,21,65,307,24,22,40,135,32*7B
$GPGSV,3,3,11,27,37,167,33,32,49,106,37,39,37,173,29*47
$GPGLL,4612.59409,N,02006.31566,E,103831.00,A,A*62
$GPRMC,103832.00,A,4612.59476,N,02006.31554,E,2.008,3.16,220723,,,A*67
$GPVTG,3.16,T,,M,2.008,N,3.718,K,A*3E
$GPGGA,103832.00,4612.59476,N,0254,E,1,05,2.11,66.1,M,37.7,M,,*68
$GPGSA,A,3,02,32,08,27,21,,,,,,,,6.16,2.11,5.79*07
$GPGSV,3,1,11,01,,,35,02,55,302,31,03,,,21,08,64,211,22*75
$GPGSV,3,2,11,10,38,054,30,14,13,314,16,21,65,307,24,22,40,135,32*76
$GPGSV,3,3,11,27,37,167,32,32,49,106,38,39,37,173,27*47
$GPGLL,4612.59476,N,02006.31554,E,103832.00,A,A*68
$GPRMC,103833.00,A,4612.59591,N,02006.31586,E,1.980,15.83,220723,,,A*50
$GPVTG,15.83,T,,M,1.980,N,3.667,K,A*06
$GPGGA,103833.00,4612.59591,N,02006.31586,E,1,05,2.11,62.8,M,37.7
$GPGSA,A,3,02,32,08,27,21,,,,,,,,6.16,2.11,5.79*07
$GPGSV,3,1,11,01,,,36,02,55,302,34,03,,,18,08,64,211,29*72
$GPGSV,3,2,11,10,38,054,37,14,13,314,17,21,65,307,30,22,40,135,35*72
$GPGSV,3,3,11,27,37,167,35,32,49,106,39,39,37,173,27*41
$GPGLL,4612.59591,N,02006.31586,E,103833.00,A,A*6E
$GPRMC,103834.00,A,4612.59627,N,02006.31608,E,1.894,23.73,220723,,,A*52
$GPVTG,23.73,T,,M,1.894,N,3.507,K,A*0D
$GPGGA,103834.00,4612.59627,N,02006.31608,E,1,05,2.11,63.5,M,37.7,M,,*63
$GPGSA,A,3,02,32,08,27,,,,6.16,2.11,5.79*07
$GPGSV,3,1,11,01,,,33,02,55,302,34,03,,,19,08,64,211,30*7E
$GPGSV,3,2,11,10,38,054,36,14,13,314,18,21,65,307,30,22,40,135,37*7E
$GPGSV,3,3,11,27,37,167,35,32,49,106,41,39,37,173,28*41
$GPGLL,4612.59627,N,02006.31608,E,103834.00,A,A*62
$GPRMC,103835.00,A,4612.59640,N,02006.31648,E,1.637,26.93,220723,,,A*5A
$GPVTG,26.93,T,,M,1.637,N,3.031,K,A*01
$GPGGA,103835.00,4612.59640,N,02006.31648,E,1,05,2.11,65.9,M,37.7,M,,*6D
$GPGSA,A,3,02,32,08,27,21,,,,,,,,6.16,2.11,5.79*07
$GP,11,01,,,34,02,55,302,36,03,,,18,08,64,211,34*7E
$GPGSV,3,2,11,10,38,054,30,14,13,314,17,21,65,307,31,22,40,135,39*78
$GPGSV,3,3,11,27,37,167,36,32,49,106,37,39,37,173,28*43
$GPGLL,4612.59640,N,02006.31648,E,103835.00,A,A*66
$GPRMC,103836.00,A,4612.59686,N,02006.31696,E,1.543,32.78,220723,,,A*50
$GPVTG,32.78,T,,M,1.543,N,2.858,K,A*07
$GPGGA,103836.00,4612.59686,N,02006.31696,E,1,05,2.11,64.7,M,37.7,M,,*68
$GPGSA,A,3,02,32,08,27,21,,,,,,,,6.16,2.11,5.79*07
$GPGSV,3,1,11,01,,,34,02,55,302,33,008,64,211,31*7F
$GPGSV,3,2,11,10,38,054,36,14,13,314,17,21,65,307,35,22,40,135,37*74
$GPGSV,3,3,11,27,37,167,36,32,49,106,39,39,37,173,30*44
$GPGLL,4612.59686,N,02006.31696,E,103836.00,A,A*6C
$GPRMC,103837.00,A,4612.59723,N,02006.31731,E,1.796,35.06,220723,,,A*57
$GPVTG,35.06,T,,M,1.796,N,3.326,K,A*00
$GPGGA,103837.00,4612.59723,N,02006.31731,E,1,05,2.11,64.6,M,37.7,M,,*6A
$GPGSA,A,3,02,32,08,27,21,,,,,,,,6.16,2.11,5.79*07
$GPGSV,3,1,11,01,,,37,02,55,302,34,03,,,18,08,64,211,31*7A
$GPGSV,30,38,054,33,14,13,314,18,21,65,307,32,22,40,135,35*7B
$GPGSV,3,3,11,27,37,167,37,32,49,106,39,39,37,173,31*44
$GPGLL,4612.59723,N,02006.31731,E,103837.00,A,A*6F
$GPRMC,103838.00,A,4612.59764,N,02006.31750,E,1.840,32.61,220723,,,A*5E
$GPVTG,32.61,T,,M,1.840,N,3.407,K,A*06
$GPGGA,103838.00,4612.59764,N,02006.31750,E,1,05,2.11,64.2,M,37.7,M,,*65
$GPGSA,A,3,02,32,08,27,21,,,,,,,,6.16,2.11,5.79*07
$GPGSV,3,1,11,01,,,29,02,55,302,35,03,,,18,08,64,211,33*76
$GPGSV,3,2,11,10,38,054,36,14,13,314,19,27,32,22,40,135,39*73
$GPGSV,3,3,11,27,37,167,37,32,49,106,39,39,37,173,31*44
$GPGLL,4612.59764,N,02006.31750,E,103838.00,A,A*64
$GPRMC,103839.00,A,4612.59818,N,02006.31769,E,1.871,25.69,220723,,,A*5D
$GPVTG,25.69,T,,M,1.871,N,3.464,K,A*0F
$GPGGA,103839.00,4612.59818,N,02006.31769,E,1,05,2.11,64.1,M,37.7,M,,*69
$GPGSA,A,3,02,32,08,27,21,,,,,,,,6.16,2.11,5.79*07
$GPGSV,3,1,11,01,,,33,02,55,302,36,03,,,16,08,64,211,25*77
$GPGSV,3,2,11,10,38,054,31,14,13,314,18,21,65,307,34,22,40,135,36*7C
$GP,11,27,37,167,36,32,49,106,38,39,37,173,28*4C
$GPGLL,4612.59818,N,02006.31769,E,103839.00,A,A*6B
$GPRMC,103840.00,A,4612.59865,N,02006.31790,E,2.022,24.27,220723,,,A*59
$GPVTG,24.27,T,,M,2.022,N,3.745,K,A*09
$GPGGA,103840.00,4612.59865,N,02006.31790,E,1,05,2.11,63.9,M,37.7,M,,*64
$GPGSA,A,3,02,32,08,27,21,,,,,,,,6.16,2.11,5.79*07
$GPGSV,3,1,10,01,,,29,02,55,302,33,03,,,16,08,64,211,27*7A
$GPGSV,3,2,10,10,38,054,29,14,13,314,18,21,65,307,31,22,40,135,36*71
$GPGSV,3,3,10,27,37,167,36,32,49,106
$GPGLL,4612.59865,N,02006.31790,E,103840.00,A,A*69
$GPRMC,103841.00,A,4612.59918,N,02006.31830,E,2.036,26.95,220723,,,A*58
$GPVTG,26.95,T,,M,2.036,N,3.771,K,A*00
$GPGGA,103841.00,4612.59918,N,02006.31830,E,1,05,2.11,63.5,M,37.7,M,,*67
$GPGSA,A,3,02,32,08,27,21,,,,,,,,6.16,2.11,5.79*07
$GPGSV,3,1,10,01,,,31,02,55,302,33,03,,,16,08,64,211,28*7C
$GPGSV,3,2,10,10,38,054,28,14,13,314,19,21,66,308,30,22,40,135,36*7C
$GPGSV,3,3,10,27,37,167,37,32,49,106,35*70
$GPGLL,4612.59918,N,02006.31830,E,103A,A*66
$GPRMC,103842.00,A,4612.59979,N,02006.31861,E,1.560,26.74,220723,,,A*52
$GPVTG,26.74,T,,M,1.560,N,2.889,K,A*03
$GPGGA,103842.00,4612.59979,N,02006.31861,E,1,05,2.11,62.3,M,37.7,M,,*60
$GPGSA,A,3,02,32,08,27,21,,,,,,,,6.16,2.11,5.79*07
$GPGSV,3,1,10,01,,,29,02,55,302,33,03,,,13,08,64,211,25*7D
$GPGSV,3,2,10,10,38,054,26,14,13,314,17,21,66,308,30,22,40,135,34*7E
$GPGSV,3,3,10,27,37,167,32,32,49,106,35*75
$GPGLL,4612.59979,N,02006.31861,E,103842.00,A,A*66
$GPRMC,103843.00,A,4612.60029,.31885,E,1.945,22.85,220723,,,A*5E
$GPVTG,22.85,T,,M,1.945,N,3.602,K,A*0E
$GPGGA,103843.00,4612.60029,N,02006.31885,E,1,05,2.11,62.1,M,37.7,M,,*6F
$GPGSA,A,3,02,32,08,27,21,,,,,,,,6.16,2.11,5.79*07
$GPGSV,3,1,10,01,,,34,02,55,302,34,03,,,17,08,64,210,24*72
$GPGSV,3,2,10,10,38,054,25,14,13,314,19,21,66,308,26,22,40,135,37*77
$GPGSV,3,3,10,27,37,167,32,32,49,106,39*79
$GPGLL,4612.60029,N,02006.31885,E,103843.00,A,A*6B
$GPRMC,103844.00,A,4612.60093,N,02006.31917,E,2.227,19.17,220723,,,A*5D
$G.17,T,,M,2.227,N,4.125,K,A*04
$GPGGA,103844.00,4612.60093,N,02006.31917,E,1,05,2.11,60.4,M,37.7,M,,*64
$GPGSA,A,3,02,32,08,27,21,,,,,,,,6.16,2.11,5.79*07
$GPGSV,3,1,10,01,,,35,02,55,302,33,03,,,18,08,64,210,30*7E
$GPGSV,3,2,10,10,38,054,26,14,13,314,20,21,66,308,31,22,40,135,37*78
$GPGSV,3,3,10,27,37,167,33,32,49,106,37*76
$GPGLL,4612.60093,N,02006.31917,E,103844.00,A,A*67
$GPRMC,103845.00,A,4612.60145,N,02006.31942,E,2.020,18.37,220723,,,A*50
$GPVTG,18.37,T,,M,2.020,N,3.742,K,A*02
$GPGGA,00,4612.60145,N,02006.31942,E,1,05,2.11,60.6,M,37.7,M,,*6D
$GPGSA,A,3,02,32,08,27,21,,,,,,,,6.16,2.11,5.79*07
$GPGSV,3,1,10,01,,,33,02,55,302,30,03,,,19,08,64,210,32*78
$GPGSV,3,2,10,10,38,054,31,14,13,314,20,21,66,308,32,22,40,135,42*7F
$GPGSV,3,3,10,27,37,167,38,32,49,106,38*72
$GPGLL,4612.60145,N,02006.31942,E,103845.00,A,A*6C
$GPRMC,103846.00,A,4612.60183,N,02006.31957,E,1.991,16.36,220723,,,A*52
$GPVTG,16.36,T,,M,1.991,N,3.687,K,A*05
$GPGGA,103846.00,4612.60183,N,02006.31957,E,1,05,2.11,37.7,M,,*64
$GPGSA,A,3,02,32,08,27,21,,,,,,,,6.16,2.11,5.79*07
$GPGSV,3,1,10,01,,,28,02,55,302,24,03,,,19,08,64,210,35*70
$GPGSV,3,2,10,10,38,054,24,14,13,314,19,21,66,308,31,22,40,135,34*73
$GPGSV,3,3,10,27,37,167,31,32,49,106,42*76
$GPGLL,4612.60183,N,02006.31957,E,103846.00,A,A*61
$GPRMC,103847.00,A,4612.60234,N,02006.31976,E,1.931,15.54,220723,,,A*52
$GPVTG,15.54,T,,M,1.931,N,3.576,K,A*05
$GPGGA,103847.00,4612.60234,N,02006.31976,E,1,05,2.11,60.7,M,37.7,M,,*6C
$GPGSA,A,3,02,32,08,27,2,,,6.16,2.11,5.79*07
$GPGSV,3,1,10,01,,,32,02,55,302,22,03,,,20,08,64,210,30*72
$GPGSV,3,2,10,10,38,054,31,14,13,314,17,21,66,308,23,22,40,135,30*7E
$GPGSV,3,3,10,27,37,167,27,32,49,106,34*70
$GPGLL,4612.60234,N,02006.31976,E,103847.00,A,A*6C
$GPRMC,103848.00,A,4612.60267,N,02006.31979,E,1.226,,220723,,,A*72
$GPVTG,,T,,M,1.226,N,2.271,K,A*22
$GPGGA,103848.00,4612.60267,N,02006.31979,E,1,05,2.11,59.5,M,37.7,M,,*62
$GPGSA,A,3,02,32,08,27,21,,,,,,,,6.16,2.11,5.79*07
$GPGSV,3,1,10,01,,,27,02,53,03,,,20,08,64,210,28*7E
$GPGSV,3,2,10,10,38,054,30,14,13,314,16,21,66,308,23,22,40,135,29*76
$GPGSV,3,3,10,27,37,167,32,32,49,106,30*70
$GPGLL,4612.60267,N,02006.31979,E,103848.00,A,A*6A
$GPRMC,103849.00,A,4612.60297,N,02006.32002,E,1.250,,220723,,,A*7B
$GPVTG,,T,,M,1.250,N,2.316,K,A*23
$GPGGA,103849.00,4612.60297,N,02006.32002,E,1,05,2.11,59.1,M,37.7,M,,*6E
$GPGSA,A,3,02,32,08,27,21,,,,,,,,6.16,2.11,5.79*07
$GPGSV,3,1,10,01,,,32,02,55,302,31,03,,,21,08,64,210,26*76
$GPGSV,3,2,10,10,38,04,13,314,15,21,66,308,21,22,40,135,28*75
$GPGSV,3,3,10,27,37,167,30,32,49,106,29*7A
$GPGLL,4612.60297,N,02006.32002,E,103849.00,A,A*62
$GPRMC,103850.00,A,4612.60339,N,02006.31999,E,1.210,,220723,,,A*7A
$GPVTG,,T,,M,1.210,N,2.241,K,A*24
$GPGGA,103850.00,4612.60339,N,02006.31999,E,1,05,2.11,58.0,M,37.7,M,,*6B
$GPGSA,A,3,02,32,08,27,21,,,,,,,,6.16,2.11,5.79*07
$GPGSV,3,1,10,01,,,37,02,55,302,34,03,,,21,08,64,210,25*75
$GPGSV,3,2,10,10,38,054,34,14,13,314,14,21,66,308,22,22,40,135,31*78
$GPGSV,27,37,167,24,32,49,106,27*71
$GPGLL,4612.60339,N,02006.31999,E,103850.00,A,A*67
$GPRMC,103851.00,A,4612.60400,N,02006.32015,E,1.807,10.51,220723,,,A*5F
$GPVTG,10.51,T,,M,1.807,N,3.346,K,A*04
$GPGGA,103851.00,4612.60400,N,02006.32015,E,1,05,2.11,57.9,M,37.7,M,,*6F
$GPGSA,A,3,02,32,08,27,21,,,,,,,,6.16,2.11,5.79*07
$GPGSV,3,1,10,01,,,37,02,55,302,29,03,,,19,08,64,210,24*73
$GPGSV,3,2,10,10,38,054,29,14,13,314,15,21,66,308,24,22,40,135,26*75
$GPGSV,3,3,10,27,37,167,26,32,49,106,27*73
$GPGLL,400,N,02006.32015,E,103851.00,A,A*65
$GPRMC,103852.00,A,4612.60469,N,02006.32050,E,1.992,14.34,220723,,,A*58
$GPVTG,14.34,T,,M,1.992,N,3.690,K,A*00
$GPGGA,103852.00,4612.60469,N,02006.32050,E,1,05,2.11,56.8,M,37.7,M,,*62
$GPGSA,A,3,02,32,08,27,21,,,,,,,,6.16,2.11,5.79*07
$GPGSV,3,1,10,01,,,36,02,55,302,35,03,,,17,08,64,210,22*77
$GPGSV,3,2,10,10,38,054,27,14,13,314,,21,66,308,22,22,40,135,24*7B
$GPGSV,3,3,10,27,37,167,27,32,49,106,25*70
$GPGLL,4612.60469,N,02006.32050,E,103852.00,A,A*68
$G3853.00,A,4612.60498,N,02006.32056,E,1.428,14.91,220723,,,A*52
$GPVTG,14.91,T,,M,1.428,N,2.644,K,A*0B
$GPGGA,103853.00,4612.60498,N,02006.32056,E,1,05,2.11,55.7,M,37.7,M,,*67
$GPGSA,A,3,02,32,08,27,21,,,,,,,,6.16,2.11,5.79*07
$GPGSV,3,1,10,01,,,33,02,55,302,31,03,,,15,08,64,210,23*75
$GPGSV,3,2,10,10,38,054,27,14,13,314,,21,66,308,23,22,40,135,23*7D
$GPGSV,3,3,10,27,37,167,32,32,49,106,27*76
$GPGLL,4612.60498,N,02006.32056,E,103853.00,A,A*61
$GPRMC,103854.00,A,4612.60546,N,02006.32087,E,1.75,220723,,,A*56
$GPVTG,15.87,T,,M,1.757,N,3.255,K,A*03
$GPGGA,103854.00,4612.60546,N,02006.32087,E,1,05,2.11,56.2,M,37.7,M,,*68
$GPGSA,A,3,02,32,08,27,21,,,,,,,,6.16,2.11,5.79*07
$GPGSV,3,1,10,01,,,31,02,55,302,35,03,,,15,08,64,210,24*74
$GPGSV,3,2,10,10,38,054,27,14,13,314,,21,66,308,31,22,40,135,26*7B
$GPGSV,3,3,10,27,37,167,32,32,49,106,26*77
$GPGLL,4612.60546,N,02006.32087,E,103854.00,A,A*68
$GPRMC,103855.00,A,4612.60537,N,02006.32084,E,0.710,,220723,,,A*75
$GPVTG,,T,,M,0.710,N,1.314,K,GPGGA,103855.00,4612.60537,N,02006.32084,E,1,05,2.11,56.2,M,37.7,M,,*6C
$GPGSA,A,3,02,32,08,27,21,,,,,,,,6.16,2.11,5.79*07
$GPGSV,3,1,10,01,,,31,02,55,302,36,03,,,15,08,64,210,22*71
$GPGSV,3,2,10,10,38,054,25,14,13,314,,21,66,308,32,22,40,135,24*78
$GPGSV,3,3,10,27,37,167,31,32,49,106,27*75
$GPGLL,4612.60537,N,02006.32084,E,103855.00,A,A*6C
$GPRMC,103856.00,A,4612.60538,N,02006.32084,E,0.486,,220723,,,A*75
$GPVTG,,T,,M,0.486,N,0.900,K,A*20
$GPGGA,103856.00,4612.60538,N,02006.32084,E,1,05,2.1M,37.7,M,,*62
$GPGSA,A,3,02,32,08,27,21,,,,,,,,6.16,2.11,5.79*07
$GPGSV,3,1,10,01,,,31,02,55,302,37,03,,,17,08,64,210,23*73
$GPGSV,3,2,10,10,38,054,27,14,13,314,,21,66,308,32,22,40,135,22*7C
$GPGSV,3,3,10,27,37,167,32,32,49,106,28*79
$GPGLL,4612.60538,N,02006.32084,E,103856.00,A,A*60
$GPRMC,103857.00,A,4612.60533,N,02006.32090,E,0.365,,220723,,,A*70
$GPVTG,,T,,M,0.365,N,0.676,K,A*24
$GPGGA,103857.00,4612.60533,N,02006.32090,E,1,05,2.11,56.1,M,37.7,M,,*6C
$GPGSA,A,3,02,32,08,27,21,,,,,,,,6.,5.79*07
$GPGSV,3,1,10,01,,,31,02,55,302,37,03,,,16,08,64,210,21*70
$GPGSV,3,2,10,10,38,054,27,14,13,314,,21,66,308,32,22,40,135,17*7A
$GPGSV,3,3,10,27,37,167,33,32,49,106,28*78
$GPGLL,4612.60533,N,02006.32090,E,103857.00,A,A*6F
$GPRMC,103858.00,A,4612.60534,N,02006.32090,E,0.270,,220723,,,A*7D
$GPVTG,,T,,M,0.270,N,0.499,K,A*22
$GPGGA,103858.00,4612.60534,N,02006.32090,E,1,05,2.11,55.7,M,37.7,M,,*61
$GPGSA,A,3,02,32,08,27,21,,,,,,,,6.16,2.11,5.79*07
$GPGSV,3,1,09,01,,,34,02,55,302,36,08,64,10,38,054,27*44
$GPGSV,3,2,09,14,13,314,,21,66,308,33,22,40,135,28,27,37,167,32*71
$GPGSV,3,3,09,32,49,106,27*4E
$GPGLL,4612.60534,N,02006.32090,E,103858.00,A,A*67
$GPRMC,103859.00,A,4612.60566,N,02006.32091,E,0.882,,220723,,,A*7D
$GPVTG,,T,,M,0.882,N,1.634,K,A*21
$GPGGA,103859.00,4612.60566,N,02006.32091,E,1,05,2.11,54.9,M,37.7,M,,*69
$GPGSA,A,3,02,32,08,27,21,,,,,,,,6.16,2.11,5.79*07
$GPGSV,3,1,09,01,,,31,02,55,302,35,08,64,210,23,10,38,054,27*42
$GPGSV,3,2,09,14,13,314,,21,66,308,32,225,27,27,37,167,31*7C
$GPGSV,3,3,09,32,49,106,26*4F
$GPGLL,4612.60566,N,02006.32091,E,103859.00,A,A*60
$GPRMC,103900.00,A,4612.60585,N,02006.32098,E,0.770,,220723,,,A*76
$GPVTG,,T,,M,0.770,N,1.426,K,A*22
$GPGGA,103900.00,4612.60585,N,02006.32098,E,1,05,2.11,54.8,M,37.7,M,,*61
$GPGSA,A,3,02,32,08,27,21,,,,,,,,6.16,2.11,5.79*07
$GPGSV,3,1,09,01,,,23,02,55,302,25,08,64,210,22,10,38,054,28*4E
$GPGSV,3,2,09,14,13,314,,21,66,308,20,22,40,135,25,27,37,167,25*78
$GPGSV,3,3,09,32,49,106,27*4E
$GPG60585,N,02006.32098,E,103900.00,A,A*69
$GPRMC,103901.00,A,4612.60604,N,02006.32121,E,0.771,,220723,,,A*7F
$GPVTG,,T,,M,0.771,N,1.428,K,A*2D
$GPGGA,103901.00,4612.60604,N,02006.32121,E,1,05,2.11,54.6,M,37.7,M,,*67
$GPGSA,A,3,02,32,08,27,21,,,,,,,,6.16,2.11,5.79*07
$GPGSV,3,1,09,01,,,28,02,55,302,25,08,64,210,24,10,38,054,28*43
$GPGSV,3,2,09,14,13,314,,21,66,308,21,22,40,135,23,27,37,167,25*7F
$GPGSV,3,3,09,32,49,106,29*40
$GPGLL,4612.60604,N,02006.32121,E,103901.00,A,A*61
$GPRMC,103902.00,A0593,N,02006.32095,E,0.687,,220723,,,A*77
$GPVTG,,T,,M,0.687,N,1.272,K,A*2C
$GPGGA,103902.00,4612.60593,N,02006.32095,E,1,05,2.11,56.6,M,37.7,M,,*65
$GPGSA,A,3,02,32,08,27,21,,,,,,,,6.16,2.11,5.79*07
$GPGSV,3,1,09,01,,,24,02,55,302,25,08,64,210,25,10,38,054,26*40
$GPGSV,3,2,09,14,13,314,,21,66,308,27,22,40,135,21,27,37,167,26*78
$GPGSV,3,3,09,32,49,106,27*4E
$GPGLL,4612.60593,N,02006.32095,E,103902.00,A,A*61
$GPRMC,103903.00,A,4612.60588,N,02006.32148,E,0.800,,220723,,,A*7C
$GPVTG,,T,,M,0..482,K,A*24
$GPGGA,103903.00,4612.60588,N,02006.32148,E,1,05,2.11,57.3,M,37.7,M,,*6B
$GPGSA,A,3,02,32,08,27,21,,,,,,,,6.16,2.11,5.79*07
$GPGSV,3,1,09,01,,,33,02,55,302,26,08,64,210,26,10,38,054,25*45
$GPGSV,3,2,09,14,13,314,17,21,66,308,26,22,40,135,22,27,37,167,27*7D
$GPGSV,3,3,09,32,49,106,29*40
$GPGLL,4612.60588,N,02006.32148,E,103903.00,A,A*6B
$GPRMC,103904.00,A,4612.60565,N,02006.32124,E,0.229,,220723,,,A*73
$GPVTG,,T,,M,0.229,N,0.424,K,A*28
$GPGGA,103904.00,4612.60565,N,02006.32124,E2.11,58.6,M,37.7,M,,*6F
$GPGSA,A,3,02,32,08,27,21,,,,,,,,6.16,2.11,5.79*07
$GPGSV,3,1,09,01,,,25,02,55,302,26,08,64,210,32,10,38,054,23*41
$GPGSV,3,2,09,14,13,314,14,21,66,308,25,22,40,135,20,27,37,167,37*7E
$GPGSV,3,3,09,32,49,106,30*48
$GPGLL,4612.60565,N,02006.32124,E,103904.00,A,A*65
$GPRMC,103905.00,A,4612.60565,N,02006.32117,E,0.261,,220723,,,A*7E
$GPVTG,,T,,M,0.261,N,0.484,K,A*2E
$GPGGA,103905.00,4612.60565,N,02006.32117,E,1,05,2.11,58.5,M,37.7,M,,*6D
$GPGSA,A,3,02,32,08,27,21,,,,,,,2.11,5.79*07
$GPGSV,3,1,09,01,,,23,02,55,302,27,08,64,210,23,10,38,054,22*47
$GPGSV,3,2,09,14,13,314,11,21,66,308,25,22,40,135,18,27,37,167,36*71
$GPGSV,3,3,09,32,49,106,28*41
$GPGLL,4612.60565,N,02006.32117,E,103905.00,A,A*64
$GPRMC,103906.00,A,4612.60573,N,02006.32114,E,0.205,,220723,,,A*7B
$GPVTG,,T,,M,0.205,N,0.380,K,A*2F
$GPGGA,103906.00,4612.60573,N,02006.32114,E,1,05,2.11,58.3,M,37.7,M,,*6C
$GPGSA,A,3,02,32,08,27,21,,,,,,,,6.16,2.11,5.79*07
$GPGSV,3,1,09,01,,,23,02,55,302,29,08,64,,10,38,054,25*4D
$GPGSV,3,2,09,14,13,314,11,21,66,308,26,22,40,135,17,27,37,167,36*7D
$GPGSV,3,3,09,32,49,106,27*4E
$GPGLL,4612.60573,N,02006.32114,E,103906.00,A,A*63
$GPRMC,103907.00,A,4612.60573,N,02006.32114,E,0.181,,220723,,,A*75
$GPVTG,,T,,M,0.181,N,0.335,K,A*2E
$GPGGA,103907.00,4612.60573,N,02006.32114,E,1,05,2.11,58.3,M,37.7,M,,*6D
$GPGSA,A,3,02,32,08,27,21,,,,,,,,6.16,2.11,5.79*07
$GPGSV,3,1,09,01,,,31,02,55,302,31,08,64,210,22,10,38,055,28*49
$GPGSV,3,2,09,14,13,314,,21,66,308,27,35,18,27,37,167,23*77
$GPGSV,3,3,09,32,49,106,26*4F
$GPGLL,4612.60573,N,02006.32114,E,103907.00,A,A*62
$GPRMC,103908.00,A,4612.60574,N,02006.32114,E,0.333,,220723,,,A*76
$GPVTG,,T,,M,0.333,N,0.616,K,A*21
$GPGGA,103908.00,4612.60574,N,02006.32114,E,1,05,2.11,58.7,M,37.7,M,,*61
$GPGSA,A,3,02,32,08,27,21,,,,,,,,6.16,2.11,5.79*07
$GPGSV,3,1,09,01,,,29,02,55,302,30,08,64,210,21,10,38,055,32*49
$GPGSV,3,2,09,14,13,314,,21,66,308,28,22,40,135,20,27,37,167,25*75
$GPGSV,3,3,09,32,49,106,25*4C
$GP12.60574,N,02006.32114,E,103908.00,A,A*6A
$GPRMC,103909.00,A,4612.60609,N,02006.32030,E,1.488,,220723,,,A*7F
$GPVTG,,T,,M,1.488,N,2.756,K,A*20
$GPGGA,103909.00,4612.60609,N,02006.32030,E,1,05,2.11,58.1,M,37.7,M,,*68
$GPGSA,A,3,02,32,08,27,21,,,,,,,,6.16,2.11,5.79*07
$GPGSV,3,1,09,01,,,29,02,55,302,30,08,64,210,30,10,38,055,37*4C
$GPGSV,3,2,09,14,13,314,,21,66,308,27,22,40,135,22,27,37,167,23*7E
$GPGSV,3,3,09,32,49,106,30*48
$GPGLL,4612.60609,N,02006.32030,E,103909.00,A,A*65
$GPRMC,103910.012.60685,N,02006.32009,E,1.775,1.05,220723,,,A*62
$GPVTG,1.05,T,,M,1.775,N,3.287,K,A*33
$GPGGA,103910.00,4612.60685,N,02006.32009,E,1,05,2.11,55.8,M,37.7,M,,*6A
$GPGSA,A,3,02,32,08,27,21,,,,,,,,6.16,2.11,5.79*07
$GPGSV,3,1,09,01,,,19,02,55,302,22,08,64,210,30,10,38,055,29*43
$GPGSV,3,2,09,14,13,314,24,21,66,308,25,22,40,135,27,27,37,167,29*75
$GPGSV,3,3,09,32,49,106,36*4E
$GPGLL,4612.60685,N,02006.32009,E,103910.00,A,A*63
$GPRMC,103911.00,A,4612.60702,N,02006.32018,E,0.890,,220723,,,A*72
$T,,M,0.890,N,1.649,K,A*28
$GPGGA,103911.00,4612.60702,N,02006.32018,E,1,05,2.11,55.2,M,37.7,M,,*6F
$GPGSA,A,3,02,32,08,27,21,,,,,,,,6.16,2.11,5.79*07
$GPGSV,3,1,09,01,,,22,02,55,302,29,08,64,210,30,10,38,055,33*4B
$GPGSV,3,2,09,14,13,314,25,21,66,308,26,22,40,135,24,27,37,167,32*7E
$GPGSV,3,3,09,32,49,106,31*49
$GPGLL,4612.60702,N,02006.32018,E,103911.00,A,A*6C
$GPRMC,103912.00,A,4612.60696,N,02006.32034,E,0.561,,220723,,,A*70
$GPVTG,,T,,M,0.561,N,1.038,K,A*2B
$GPGGA,103912.00,4612.60696,N32034,E,1,05,2.11,56.4,M,37.7,M,,*6B
$GPGSA,A,3,02,32,08,27,21,,,,,,,,6.16,2.11,5.79*07
$GPGSV,3,1,09,01,,,30,02,55,302,36,08,64,210,23,10,38,055,27*41
$GPGSV,3,2,09,14,13,314,23,21,66,308,25,22,40,135,25,27,37,167,28*71
$GPGSV,3,3,09,32,49,106,30*48
$GPGLL,4612.60696,N,02006.32034,E,103912.00,A,A*6D
$GPRMC,103913.00,A,4612.60697,N,02006.32053,E,0.564,,220723,,,A*74
$GPVTG,,T,,M,0.564,N,1.045,K,A*24
$GPGGA,103913.00,4612.60697,N,02006.32053,E,1,05,2.11,56.9,M,37.7,M,,*67
$GPGSA,A,3,02,32,01,,,,,,,,6.16,2.11,5.79*07
$GPGSV,3,1,09,01,,,28,02,55,302,35,08,64,210,21,10,38,055,24*4A
$GPGSV,3,2,09,14,13,314,18,21,66,308,26,22,40,135,26,27,37,167,27*76
$GPGSV,3,3,09,32,49,106,22*4B
$GPGLL,4612.60697,N,02006.32053,E,103913.00,A,A*6C
$GPRMC,103914.00,A,4612.60704,N,02006.32059,E,0.480,,220723,,,A*79
$GPVTG,,T,,M,0.480,N,0.890,K,A*2E
$GPGGA,103914.00,4612.60704,N,02006.32059,E,1,05,2.11,57.2,M,37.7,M,,*6B
$GPGSA,A,3,02,32,08,27,21,,,,,,,,6.16,2.11,5.79*07
$GPGSV,3,1,09,01,,,28,02,55,08,64,210,20,10,38,055,30*4F
$GPGSV,3,2,09,14,13,314,14,21,66,308,26,22,40,135,27,27,37,167,28*74
$GPGSV,3,3,09,32,49,106,24*4D
$GPGLL,4612.60704,N,02006.32059,E,103914.00,A,A*6A
$GPRMC,103915.00,A,4612.60712,N,02006.32065,E,0.490,,220723,,,A*71
$GPVTG,,T,,M,0.490,N,0.907,K,A*20
$GPGGA,103915.00,4612.60712,N,02006.32065,E,1,05,2.11,57.2,M,37.7,M,,*62
$GPGSA,A,3,02,32,08,27,21,,,,,,,,6.16,2.11,5.79*07
$GPGSV,3,1,09,01,,,27,02,55,302,32,08,64,210,22,10,38,055,28*4D
$GPGSV,3,2,09,14,13,314,10,308,25,22,40,135,26,27,37,167,28*72
$GPGSV,3,3,09,32,49,106,23*4A
$GPGLL,4612.60712,N,02006.32065,E,103915.00,A,A*63
$GPRMC,103916.00,A,4612.60695,N,02006.32056,E,0.201,,220723,,,A*72
$GPVTG,,T,,M,0.201,N,0.372,K,A*26
$GPGGA,103916.00,4612.60695,N,02006.32056,E,1,05,2.11,58.5,M,37.7,M,,*67
$GPGSA,A,3,02,32,08,27,21,,,,,,,,6.16,2.11,5.79*07
$GPGSV,3,1,09,01,,,27,02,55,302,32,08,64,210,27,10,38,055,33*42
$GPGSV,3,2,09,14,13,314,12,21,66,308,27,22,41,134,25,27,37,167,28*71
$GPGSV,3,3,09,32,427*4E
$GPGLL,4612.60695,N,02006.32056,E,103916.00,A,A*6E
$GPRMC,103917.00,A,4612.60687,N,02006.32020,E,0.086,,220723,,,A*7C
$GPVTG,,T,,M,0.086,N,0.159,K,A*20
$GPGGA,103917.00,4612.60687,N,02006.32020,E,1,05,2.11,58.2,M,37.7,M,,*63
$GPGSA,A,3,02,32,08,27,21,,,,,,,,6.16,2.11,5.79*07
$GPGSV,3,1,09,01,,,29,02,55,302,31,08,64,210,27,10,38,055,34*48
$GPGSV,3,2,09,14,13,314,17,21,66,308,27,22,41,134,27,27,36,167,28*77
$GPGSV,3,3,09,32,49,106,33*4B
$GPGLL,4612.60687,N,02006.32020,E,103917.00,A,A*6$GPRMC,103918.00,A,4612.60682,N,02006.32006,E,0.350,,220723,,,A*7A
$GPVTG,,T,,M,0.350,N,0.649,K,A*2E
$GPGGA,103918.00,4612.60682,N,02006.32006,E,1,05,2.11,58.4,M,37.7,M,,*6B
$GPGSA,A,3,02,32,08,27,21,,,,,,,,6.16,2.11,5.79*07
$GPGSV,3,1,09,01,,,31,02,55,302,36,08,64,210,15,10,38,055,28*4A
$GPGSV,3,2,09,14,13,314,22,21,66,308,27,22,41,134,29,27,36,167,30*76
$GPGSV,3,3,09,32,49,106,30*48
$GPGLL,4612.60682,N,02006.32006,E,103918.00,A,A*63
$GPRMC,103919.00,A,4612.60698,N,02006.31994,E,0.986,,220770
$GPVTG,,T,,M,0.986,N,1.826,K,A*29
$GPGGA,103919.00,4612.60698,N,02006.31994,E,1,05,2.11,59.2,M,37.7,M,,*67
$GPGSA,A,3,02,32,08,27,21,,,,,,,,6.16,2.11,5.79*07
$GPGSV,3,1,09,01,,,32,02,55,302,30,08,64,210,28,10,38,055,37*4F
$GPGSV,3,2,09,14,13,314,21,21,66,308,27,22,41,134,28,27,36,167,30*74
$GPGSV,3,3,09,32,49,106,29*40
$GPGLL,4612.60698,N,02006.31994,E,103919.00,A,A*68
$GPRMC,103920.00,A,4612.60702,N,02006.31958,E,1.075,,220723,,,A*7C
$GPVTG,,T,,M,1.075,N,1.991,K,A*20
$GPGGA,103920.0060702,N,02006.31958,E,1,04,2.15,60.7,M,37.7,M,,*65
$GPGSA,A,3,02,32,08,27,,,,,,,,,6.30,2.15,5.92*01
$GPGSV,3,1,09,01,,,26,02,55,302,24,08,64,210,28,10,38,055,34*4C
$GPGSV,3,2,09,14,13,314,20,21,66,308,,22,41,134,32,27,36,167,30*7B
$GPGSV,3,3,09,32,49,106,38*40
$GPGLL,4612.60702,N,02006.31958,E,103920.00,A,A*60
$GPRMC,103921.00,A,4612.60708,N,02006.31929,E,0.797,,220723,,,A*7B
$GPVTG,,T,,M,0.797,N,1.476,K,A*2E
$GPGGA,103921.00,4612.60708,N,02006.31929,E,1,04,2.15,60.5,M,37.7,M,,*6A
$GPGSA,A32,08,27,,,,,,,,,6.30,2.15,5.92*01
$GPGSV,3,1,09,01,,,25,02,55,302,30,08,64,210,28,10,38,055,24*4B
$GPGSV,3,2,09,14,13,314,20,21,66,308,25,22,41,134,36,27,36,167,23*7A
$GPGSV,3,3,09,32,49,106,40*4F
$GPGLL,4612.60708,N,02006.31929,E,103921.00,A,A*6D
$GPRMC,103922.00,A,4612.60735,N,02006.31940,E,0.793,,220723,,,A*7D
$GPVTG,,T,,M,0.793,N,1.469,K,A*24
$GPGGA,103922.00,4612.60735,N,02006.31940,E,1,05,2.11,60.8,M,37.7,M,,*60
$GPGSA,A,3,02,32,08,27,21,,,,,,,,6.16,2.11,5.79*07
$GPGSV,3,1,09,01,,,3,302,29,08,64,210,27,10,38,055,30*49
$GPGSV,3,2,09,14,13,314,16,21,66,308,30,22,41,134,34,27,36,167,27*7D
$GPGSV,3,3,09,32,49,105,37*4C
$GPGLL,4612.60735,N,02006.31940,E,103922.00,A,A*6F
$GPRMC,103923.00,A,4612.60812,N,02006.31948,E,1.663,,220723,,,A*71
$GPVTG,,T,,M,1.663,N,3.079,K,A*2C
$GPGGA,103923.00,4612.60812,N,02006.31948,E,1,05,2.11,60.7,M,37.7,M,,*6C
$GPGSA,A,3,02,32,08,27,21,,,,,,,,6.16,2.11,5.79*07
$GPGSV,3,1,09,01,,,23,02,55,302,23,08,64,210,25,10,38,055,34*43
$GPGSV,3,2,09,14,1,41,134,39,27,36,167,33*76
$GPGSV,3,3,09,32,49,105,39*42
$GPGLL,4612.60812,N,02006.31948,E,103923.00,A,A*6C
$GPRMC,103924.00,A,4612.60867,N,02006.31963,E,1.347,,220723,,,A*7E
$GPVTG,,T,,M,1.347,N,2.495,K,A*28
$GPGGA,103924.00,4612.60867,N,02006.31963,E,1,05,2.11,59.8,M,37.7,M,,*65
$GPGSA,A,3,02,32,08,27,21,,,,,,,,6.16,2.11,5.79*07
$GPGSV,3,1,09,01,,,25,02,55,302,30,08,64,210,25,10,38,055,36*45
$GPGSV,3,2,09,14,13,314,14,21,66,308,27,22,41,134,37,27,36,167,29*74
$GPGSV,3,3,09,32,49,105,37*4LL,4612.60867,N,02006.31963,E,103924.00,A,A*60
$GPRMC,103925.00,A,4612.60908,N,02006.31944,E,1.473,,220723,,,A*72
$GPVTG,,T,,M,1.473,N,2.728,K,A*2D
$GPGGA,103925.00,4612.60908,N,02006.31944,E,1,05,2.11,59.7,M,37.7,M,,*66
$GPGSA,A,3,02,32,08,27,21,,,,,,,,6.16,2.11,5.79*07
$GPGSV,3,1,09,01,,,24,02,55,302,22,08,64,210,23,10,38,055,36*41
$GPGSV,3,2,09,14,13,314,17,21,66,308,28,22,41,134,31,27,36,167,22*75
$GPGSV,3,3,09,32,49,105,35*4E
$GPGLL,4612.60908,N,02006.31944,E,103925.00,A,A*6C
$GPRMC,10,A,4612.60926,N,02006.31897,E,1.869,,220723,,,A*75
$GPVTG,,T,,M,1.869,N,3.462,K,A*26
$GPGGA,103926.00,4612.60926,N,02006.31897,E,1,05,2.11,59.3,M,37.7,M,,*62
$GPGSA,A,3,02,32,08,27,21,,,,,,,,6.16,2.11,5.79*07
$GPGSV,3,1,09,01,,,22,02,55,302,23,08,64,210,23,10,38,055,37*47
$GPGSV,3,2,09,14,13,314,16,21,66,308,26,22,41,134,28,27,36,167,26*76
$GPGSV,3,3,09,32,49,105,30*4B
$GPGLL,4612.60926,N,02006.31897,E,103926.00,A,A*6C
$GPRMC,103927.00,A,4612.60948,N,02006.31846,E,1.806,,220723,,,A*79
$GP,M,1.806,N,3.344,K,A*2C
$GPGGA,103927.00,4612.60948,N,02006.31846,E,1,05,2.11,58.6,M,37.7,M,,*63
$GPGSA,A,3,02,32,08,27,21,,,,,,,,6.16,2.11,5.79*07
$GPGSV,3,1,09,01,,,23,02,55,302,30,08,64,210,23,10,38,055,38*4B
$GPGSV,3,2,09,14,13,314,18,21,66,308,28,22,41,134,27,27,36,167,26*79
$GPGSV,3,3,09,32,49,105,34*4F
$GPGLL,4612.60948,N,02006.31846,E,103927.00,A,A*69
$GPRMC,103928.00,A,4612.60991,N,02006.31779,E,2.004,,220723,,,A*78
$GPVTG,,T,,M,2.004,N,3.711,K,A*21
$GPGGA,103928.00,4612.60991,N,0779,E,1,05,2.11,57.9,M,37.7,M,,*6B
$GPGSA,A,3,02,32,08,27,21,,,,,,,,6.16,2.11,5.79*07
$GPGSV,3,1,09,01,,,34,02,55,302,30,08,64,210,23,10,38,055,39*4C
$GPGSV,3,2,09,14,13,314,18,21,66,308,29,22,41,134,25,27,36,167,24*78
$GPGSV,3,3,09,32,49,105,34*4F
$GPGLL,4612.60991,N,02006.31779,E,103928.00,A,A*61
$GPRMC,103929.00,A,4612.61004,N,02006.31715,E,1.772,,220723,,,A*72
$GPVTG,,T,,M,1.772,N,3.282,K,A*2B
$GPGGA,103929.00,4612.61004,N,02006.31715,E,1,05,2.11,58.2,M,37.7,M,,*60
$GPGSA,A,3,02,32,08,,,,,,,6.16,2.11,5.79*07
$GPGSV,3,1,09,01,,,35,02,55,302,34,08,64,210,23,10,38,055,39*49
$GPGSV,3,2,09,14,13,314,18,21,66,308,30,22,41,134,24,27,36,167,26*73
$GPGSV,3,3,09,32,49,105,31*4A
$GPGLL,4612.61004,N,02006.31715,E,103929.00,A,A*6E
$GPRMC,103930.00,A,4612.60986,N,02006.31649,E,1.790,,220723,,,A*7C
$GPVTG,,T,,M,1.790,N,3.316,K,A*2B
$GPGGA,103930.00,4612.60986,N,02006.31649,E,1,05,2.11,58.8,M,37.7,M,,*68
$GPGSA,A,3,02,32,08,27,21,,,,,,,,6.16,2.11,5.79*07
$GPGSV,3,1,09,01,,,28,02,55,30264,210,34,10,38,055,40*4F
$GPGSV,3,2,09,14,13,314,19,21,66,308,34,22,41,134,24,27,36,167,26*76
$GPGSV,3,3,09,32,49,105,35*4E
$GPGLL,4612.60986,N,02006.31649,E,103930.00,A,A*6C
$GPRMC,103931.00,A,4612.60966,N,02006.31576,E,1.983,318.78,220723,,,A*6B
$GPVTG,318.78,T,,M,1.983,N,3.673,K,A*3A
$GPGGA,103931.00,4612.60966,N,02006.31576,E,1,05,2.11,59.8,M,37.7,M,,*69
$GPGSA,A,3,02,32,08,27,21,,,,,,,,6.16,2.11,5.79*07
$GPGSV,3,1,09,01,,,32,02,55,302,35,08,64,210,27,10,38,055,42*47
$GPGSV,3,2,09,14,20,21,66,308,32,22,41,134,22,27,36,167,28*72
$GPGSV,3,3,09,32,49,105,32*49
$GPGLL,4612.60966,N,02006.31576,E,103931.00,A,A*6C
$GPRMC,103932.00,A,4612.61003,N,02006.31534,E,1.714,,220723,,,A*7E
$GPVTG,,T,,M,1.714,N,3.174,K,A*21
$GPGGA,103932.00,4612.61003,N,02006.31534,E,1,05,2.11,60.1,M,37.7,M,,*64
$GPGSA,A,3,02,32,08,27,21,,,,,,,,6.16,2.11,5.78*06
$GPGSV,3,1,09,01,,,34,02,55,302,35,08,64,210,27,10,38,055,37*43
$GPGSV,3,2,09,14,13,314,22,21,66,308,33,22,41,134,22,27,36,167,26*7F
$GPGSV,3,349,105,29*43
$GPGLL,4612.61003,N,02006.31534,E,103932.00,A,A*62
$GPRMC,103933.00,A,4612.61001,N,02006.31455,E,2.024,303.13,220723,,,A*60
$GPVTG,303.13,T,,M,2.024,N,3.748,K,A*33
$GPGGA,103933.00,4612.61001,N,02006.31455,E,1,05,2.11,60.5,M,37.7,M,,*65
$GPGSA,A,3,02,32,08,27,21,,,,,,,,6.16,2.11,5.78*06
$GPGSV,3,1,09,01,,,34,02,55,302,32,08,64,210,31,10,38,055,30*44
$GPGSV,3,2,09,14,13,314,23,21,66,308,34,22,41,134,,27,36,167,27*78
$GPGSV,3,3,09,32,49,105,33*48
$GPGLL,4612.61001,N,02006.31455,3.00,A,A*67
$GPRMC,103934.00,A,4612.61013,N,02006.31378,E,1.967,294.44,220723,,,A*6C
$GPVTG,294.44,T,,M,1.967,N,3.642,K,A*38
$GPGGA,103934.00,4612.61013,N,02006.31378,E,1,05,2.11,59.9,M,37.7,M,,*6F
$GPGSA,A,3,02,32,08,27,21,,,,,,,,6.16,2.11,5.78*06
$GPGSV,3,1,09,01,,,36,02,55,302,33,08,64,210,30,10,38,055,30*46
$GPGSV,3,2,09,14,13,314,23,21,66,308,31,22,41,134,27,27,36,167,27*78
$GPGSV,3,3,09,32,49,105,33*48
$GPGLL,4612.61013,N,02006.31378,E,103934.00,A,A*6B
$GPRMC,103935.00,A,4612.61037,N31296,E,2.024,286.48,220723,,,A*68
$GPVTG,286.48,T,,M,2.024,N,3.748,K,A*31
$GPGGA,103935.00,4612.61037,N,02006.31296,E,1,05,2.11,58.9,M,37.7,M,,*68
$GPGSA,A,3,02,32,08,27,21,,,,,,,,6.16,2.11,5.78*06
$GPGSV,3,1,09,01,,,36,02,55,302,36,08,64,210,34,10,38,055,29*4F
$GPGSV,3,2,09,14,13,314,25,21,66,308,36,22,41,134,26,27,36,167,27*78
$GPGSV,3,3,09,32,49,105,30*4B
$GPGLL,4612.61037,N,02006.31296,E,103935.00,A,A*6D
$GPRMC,103936.00,A,4612.61056,N,02006.31232,E,1.872,281.78,220723,,,A*6E
$GPVTG,2T,,M,1.872,N,3.467,K,A*33
$GPGGA,103936.00,4612.61056,N,02006.31232,E,1,05,2.11,58.4,M,37.7,M,,*6F
$GPGSA,A,3,02,32,08,27,21,,,,,,,,6.16,2.11,5.78*06
$GPGSV,3,1,09,01,,,29,02,55,302,38,08,64,210,35,10,38,055,21*46
$GPGSV,3,2,09,14,13,314,28,21,66,308,33,22,41,134,25,27,36,167,25*71
$GPGSV,3,3,09,32,49,105,32*49
$GPGLL,4612.61056,N,02006.31232,E,103936.00,A,A*67
$GPRMC,103937.00,A,4612.61070,N,02006.31162,E,1.722,282.37,220723,,,A*6F
$GPVTG,282.37,T,,M,1.722,N,3.190,K,A*3C
$GPGGA,103937.00,70,N,02006.31162,E,1,05,2.11,58.3,M,37.7,M,,*6B
$GPGSA,A,3,02,32,08,27,21,,,,,,,,6.16,2.11,5.78*06
$GPGSV,3,1,09,01,,,29,02,55,302,36,08,64,210,34,10,38,055,33*4A
$GPGSV,3,2,09,14,13,314,27,21,66,308,33,22,41,134,24,27,36,167,30*7B
$GPGSV,3,3,09,32,49,105,35*4E
$GPGLL,4612.61070,N,02006.31162,E,103937.00,A,A*64
$GPRMC,103938.00,A,4612.61075,N,02006.31101,E,1.795,284.38,220723,,,A*65
$GPVTG,284.38,T,,M,1.795,N,3.324,K,A*34
$GPGGA,103938.00,4612.61075,N,02006.31101,E,1,05,2.11,59.2,M,37.7,M,,*GSA,A,3,02,32,08,27,21,,,,,,,,6.16,2.11,5.78*06
$GPGSV,3,1,09,01,,,25,02,55,302,36,08,64,210,36,10,38,055,27*41
$GPGSV,3,2,09,14,13,314,25,21,66,308,29,22,41,134,24,27,36,167,28*7B
$GPGSV,3,3,09,32,49,105,38*43
$GPGLL,4612.61075,N,02006.31101,E,103938.00,A,A*6B
$GPRMC,103939.00,A,4612.61077,N,02006.31023,E,1.849,284.56,220723,,,A*61
$GPVTG,284.56,T,,M,1.849,N,3.425,K,A*34
$GPGGA,103939.00,4612.61077,N,02006.31023,E,1,05,2.11,60.0,M,37.7,M,,*6E
$GPGSA,A,3,02,32,08,27,21,,,,,,,,6.16,2.11,5.78*GSV,3,1,09,01,,,27,02,55,302,34,08,64,210,29,10,38,055,27*4F
$GPGSV,3,2,09,14,13,314,24,21,66,308,32,22,41,134,24,27,36,167,27*7F
$GPGSV,3,3,09,32,49,105,36*4D
$GPGLL,4612.61077,N,02006.31023,E,103939.00,A,A*69
$GPRMC,103940.00,A,4612.61085,N,02006.30945,E,2.106,,220723,,,A*78
$GPVTG,,T,,M,2.106,N,3.900,K,A*2C
$GPGGA,103940.00,4612.61085,N,02006.30945,E,1,05,2.11,61.2,M,37.7,M,,*66
$GPGSA,A,3,02,32,08,27,21,,,,,,,,6.16,2.11,5.78*06
$GPGSV,3,1,09,01,,,26,02,55,302,33,08,64,210,28,10,38,055,27PGSV,3,2,09,14,13,314,22,21,66,308,29,22,41,134,26,27,36,167,26*70
$GPGSV,3,3,09,32,49,105,37*4C
$GPGLL,4612.61085,N,02006.30945,E,103940.00,A,A*62
$GPRMC,103941.00,A,4612.61147,N,02006.30912,E,1.825,293.63,220723,,,A*6C
$GPVTG,293.63,T,,M,1.825,N,3.380,K,A*36
$GPGGA,103941.00,4612.61147,N,02006.30912,E,1,05,2.11,60.7,M,37.7,M,,*6E
$GPGSA,A,3,02,32,08,27,21,,,,,,,,6.16,2.11,5.78*06
$GPGSV,3,1,09,01,,,26,02,55,302,28,08,64,210,33,10,38,055,33*4D
$GPGSV,3,2,09,14,13,314,21,21,66,308,29,22,41,17,36,167,26*73
$GPGSV,3,3,09,32,49,105,37*4C
$GPGLL,4612.61147,N,02006.30912,E,103941.00,A,A*6E
$GPRMC,103942.00,A,4612.61155,N,02006.30881,E,1.281,,220723,,,A*70
$GPVTG,,T,,M,1.281,N,2.373,K,A*2C
$GPGGA,103942.00,4612.61155,N,02006.30881,E,1,05,2.11,62.4,M,37.7,M,,*64
$GPGSA,A,3,02,32,08,27,21,,,,,,,,6.16,2.11,5.78*06
$GPGSV,3,1,10,01,,,25,02,55,302,22,03,,,32,08,64,210,32*75
$GPGSV,3,2,10,10,38,055,35,14,13,314,20,21,66,308,30,22,41,134,34*79
$GPGSV,3,3,10,27,36,167,26,32,49,105,34*73
$612.61155,N,02006.30881,E,103942.00,A,A*65
$GPRMC,103943.00,A,4612.61185,N,02006.30843,E,1.449,,220723,,,A*70
$GPVTG,,T,,M,1.449,N,2.683,K,A*24
$GPGGA,103943.00,4612.61185,N,02006.30843,E,1,05,2.11,63.2,M,37.7,M,,*61
$GPGSA,A,3,02,32,08,27,21,,,,,,,,6.16,2.11,5.78*06
$GPGSV,3,1,10,01,,,26,02,55,302,26,03,,,31,08,64,210,32*71
$GPGSV,3,2,10,10,38,055,40,14,13,314,21,21,66,308,29,22,41,134,31*77
$GPGSV,3,3,10,27,36,167,25,32,49,105,34*70
$GPGLL,4612.61185,N,02006.30843,E,103943.00,A,A*67
$GP3944.00,A,4612.61223,N,02006.30805,E,1.550,,220723,,,A*73
$GPVTG,,T,,M,1.550,N,2.870,K,A*2F
$GPGGA,103944.00,4612.61223,N,02006.30805,E,1,05,2.11,62.9,M,37.7,M,,*61
$GPGSA,A,3,02,32,08,27,21,,,,,,,,6.16,2.11,5.78*06
$GPGSV,3,1,10,01,,,24,02,55,302,26,03,,,31,08,64,210,27*77
$GPGSV,3,2,10,10,38,055,37,14,13,314,23,21,66,308,28,22,41,134,32*77
$GPGSV,3,3,10,27,36,167,27,32,49,105,37*71
$GPGLL,4612.61223,N,02006.30805,E,103944.00,A,A*6D
$GPRMC,103945.00,A,4612.61262,N,02006.30791,E,1.464,,220723
$GPVTG,,T,,M,1.464,N,2.711,K,A*21
$GPGGA,103945.00,4612.61262,N,02006.30791,E,1,05,2.11,63.8,M,37.7,M,,*67
$GPGSA,A,3,02,32,08,27,21,,,,,,,,6.16,2.11,5.78*06
$GPGSV,3,1,10,01,,,31,02,55,302,25,03,,,28,08,64,210,26*79
$GPGSV,3,2,10,10,38,055,32,14,13,314,23,21,66,308,27,22,41,134,35*7A
$GPGSV,3,3,10,27,36,167,32,32,49,105,38*7A
$GPGLL,4612.61262,N,02006.30791,E,103945.00,A,A*6B
$GPRMC,103946.00,A,4612.61315,N,02006.30761,E,2.040,311.96,220723,,,A*6D
$GPVTG,311.96,T,,M,2.040,N,3.778,K,A*3CA,103946.00,4612.61315,N,02006.30761,E,1,05,2.11,64.6,M,37.7,M,,*63
$GPGSA,A,3,02,32,08,27,21,,,,,,,,6.16,2.11,5.78*06
$GPGSV,3,1,10,01,,,25,02,55,302,25,03,,,28,08,64,210,25*7F
$GPGSV,3,2,10,10,38,055,40,14,13,314,23,21,66,308,26,22,41,134,33*78
$GPGSV,3,3,10,27,36,167,28,32,49,105,40*7E
$GPGLL,4612.61315,N,02006.30761,E,103946.00,A,A*66
$GPRMC,103947.00,A,4612.61409,N,02006.30770,E,2.813,335.68,220723,,,A*6F
$GPVTG,335.68,T,,M,2.813,N,5.209,K,A*30
$GPGGA,103947.00,4612.61409,N,02006.30770,2.11,66.2,M,37.7,M,,*6E
$GPGSA,A,3,02,32,08,27,21,,,,,,,,6.16,2.11,5.78*06
$GPGSV,3,1,10,01,,,32,02,55,302,25,03,,,27,08,64,210,25*76
$GPGSV,3,2,10,10,38,055,40,14,13,314,25,21,66,308,27,22,41,134,35*79
$GPGSV,3,3,10,27,36,167,33,32,49,105,40*74
$GPGLL,4612.61409,N,02006.30770,E,103947.00,A,A*6D
$GPRMC,103948.00,A,4612.61483,N,02006.30765,E,2.609,344.85,220723,,,A*66
$GPVTG,344.85,T,,M,2.609,N,4.832,K,A*33
$GPGGA,103948.00,4612.61483,N,02006.30765,E,1,05,2.11,66.1,M,37.7,M,,*64
$GPGSA,A,3,8,27,21,,,,,,,,6.16,2.11,5.78*06
$GPGSV,3,1,10,01,,,26,02,55,302,26,03,,,27,08,64,210,26*73
$GPGSV,3,2,10,10,38,055,41,14,13,314,26,21,66,308,27,22,41,134,36*78
$GPGSV,3,3,10,27,36,167,33,32,49,105,44*70
$GPGLL,4612.61483,N,02006.30765,E,103948.00,A,A*64
$GPRMC,103949.00,A,4612.61557,N,02006.30763,E,2.339,352.12,220723,,,A*66
$GPVTG,352.12,T,,M,2.339,N,4.332,K,A*37
$GPGGA,103949.00,4612.61557,N,02006.30763,E,1,06,1.63,66.9,M,37.7,M,,*66
$GPGSA,A,3,02,32,08,10,27,21,,,,,,,4.99,1.63,4.71*0C
$,1,10,01,,,26,02,55,302,27,03,,,26,08,64,210,24*71
$GPGSV,3,2,10,10,38,055,31,14,13,314,25,21,66,308,31,22,41,134,37*7A
$GPGSV,3,3,10,27,36,167,32,32,49,105,40*75
$GPGLL,4612.61557,N,02006.30763,E,103949.00,A,A*6B
$GPRMC,103950.00,A,4612.61620,N,02006.30778,E,2.131,7.41,220723,,,A*68
$GPVTG,7.41,T,,M,2.131,N,3.947,K,A*37
$GPGGA,103950.00,4612.61620,N,02006.30778,E,1,06,1.63,67.7,M,37.7,M,,*68
$GPGSA,A,3,02,32,08,10,27,21,,,,,,,4.99,1.63,4.71*0C
$GPGSV,3,1,10,01,,,32,02,55,302,28,03,,,24,08,24*79
$GPGSV,3,2,10,10,38,055,26,14,13,314,27,21,66,308,25,22,41,134,35*79
